{"version": 0.6, "generator": "Overpass API 0.7.62.11 87bfad18", "osm3s": {"timestamp_osm_base": "2026-04-18T04:04:17Z", "copyright": "The data included in this document is from www.openstreetmap.org. The data is made available under ODbL."}, "elements": [{"type": "node", "id": 1308292364, "lat": -0.5477046, "lon": 102.8741191, "tags": {"admin_level": "7", "name": "Sungai Ara", "place": "village", "ref": "14.05.06.2002", "wikidata": "Q12517737"}}, {"type": "node", "id": 1308293565, "lat": -0.5497798, "lon": 102.9590813, "tags": {"admin_level": "7", "description": "Bagan Jaya, Enok, Indragiri Hilir", "name": "Bagan Jaya", "official_name": "Desa Bagan Jaya", "place": "village", "ref": "14.04.02.2009", "wikidata": "Q12473258"}}, {"type": "node", "id": 1308304624, "lat": -0.6590849, "lon": 102.704344, "tags": {"admin_level": "7", "description": "Sencalang, Keritang, Indragiri Hilir", "name": "Sencalang", "official_name": "Desa Sencalang", "place": "village", "ref": "14.04.09.2013", "wikidata": "Q12513533"}}, {"type": "node", "id": 1308324921, "lat": -0.5335922, "lon": 102.8998211, "tags": {"name": "Sungai Gantang", "place": "village"}}, {"type": "node", "id": 1308342944, "lat": -0.6414264, "lon": 102.7620184, "tags": {"admin_level": "7", "alt_name": "Pengalehan", "description": "Pengalihan, Keritang, Indragiri Hilir", "name": "Pengalihan", "official_name": "Desa Pengalihan", "place": "village", "ref": "14.04.09.2011", "wikidata": "Q12504598"}}, {"type": "node", "id": 1308343192, "lat": -0.6491173, "lon": 102.7301491, "tags": {"admin_level": "7", "description": "Pancur, Keritang, Indragiri Hilir", "name": "Pancur", "official_name": "Desa Pancur", "place": "village", "ref": "14.04.09.2012", "wikidata": "Q12502455"}}, {"type": "node", "id": 1308343999, "lat": -0.7243804, "lon": 102.9413493, "tags": {"admin_level": "7", "capital": "6", "description": "Kota Baru Reteh, Keritang, Indragiri Hilir", "name": "Kota Baru Reteh", "official_name": "Kelurahan Kota Baru Reteh", "place": "village", "ref": "14.04.09.1003", "wikidata": "Q14635414"}}, {"type": "node", "id": 1308344029, "lat": -0.4614641, "lon": 102.7337109, "tags": {"admin_level": "7", "name": "Bayas Jaya", "place": "village", "ref": "14.04.19.2004", "wikidata": "Q12475441"}}, {"type": "node", "id": 1308352767, "lat": -0.7352953, "lon": 102.8984242, "tags": {"admin_level": "7", "description": "Kembang Mekarsari, Keritang, Indragiri Hilir", "name": "Kembang Mekar Sari", "official_name": "Desa Kembang Mekar Sari", "place": "village", "ref": "14.04.09.2006", "wikidata": "Q12490701"}}, {"type": "node", "id": 1308361018, "lat": -0.4757684, "lon": 102.9524288, "tags": {"name": "Teluk Jira", "place": "village"}}, {"type": "node", "id": 1308369250, "lat": -0.687078, "lon": 102.7998875, "tags": {"admin_level": "7", "alt_name": "Telukkelasa", "description": "Teluk Kelasa, Keritang, Indragiri Hilir", "name": "Teluk Kelasa", "official_name": "Desa Teluk Kelasa", "old_name": "Teluk Kelase", "place": "village", "ref": "14.04.09.2010", "wikidata": "Q12520539"}}, {"type": "node", "id": 1308371516, "lat": -0.460239, "lon": 102.7667583, "tags": {"name": "Harapan Jaya", "place": "village"}}, {"type": "node", "id": 1308378569, "lat": -0.7065262, "lon": 102.9310602, "tags": {"admin_level": "7", "description": "Nusantara Jaya, Keritang, Indragiri Hilir", "name": "Nusantara Jaya", "official_name": "Desa Nusantara Jaya", "place": "village", "ref": "14.04.09.2004", "wikidata": "Q12501057"}}, {"type": "node", "id": 1308380075, "lat": -0.6966845, "lon": 102.5241578, "tags": {"admin_level": "7", "description": "Belimbing, Batang Gansal, Indragiri Hulu", "name": "Belimbing", "official_name": "Desa Belimbing", "place": "village", "ref": "14.02.08.2007", "wikidata": "Q11992283"}}, {"type": "node", "id": 1308391262, "lat": -0.4713286, "lon": 102.8752283, "tags": {"admin_level": "7", "name": "Karya Tunas Jaya", "place": "village", "ref": "14.04.05.2009", "wikidata": "Q13544988"}}, {"type": "node", "id": 1308391851, "lat": -0.542986, "lon": 102.852143, "tags": {"admin_level": "7", "name": "Kempas Jaya", "place": "village", "ref": "14.04.19.1002", "wikidata": "Q12490789"}}, {"type": "node", "id": 1308401389, "lat": -0.5300325, "lon": 102.8525971, "tags": {"name": "Teluk Kiambang", "place": "village"}}, {"type": "node", "id": 1308401576, "lat": -0.7116041, "lon": 102.6390486, "tags": {"admin_level": "7", "description": "Danau Rambai, Batang Gansal, Indragiri Hulu", "name": "Danau Rambai", "official_name": "Desa Danau Rambai", "place": "village", "ref": "14.02.08.2011", "wikidata": "Q13511252"}}, {"type": "node", "id": 1308438362, "lat": -0.5778357, "lon": 102.9394215, "tags": {"admin_level": "7", "name": "Rumbai Jaya", "place": "village", "ref": "14.04.19.2003", "wikidata": "Q12509137"}}, {"type": "node", "id": 1308458453, "lat": -0.7435573, "lon": 102.9306317, "tags": {"admin_level": "7", "description": "Kota Baru Seberida, Keritang, Indragiri Hilir", "name": "Kota Baru Seberida", "official_name": "Desa Kota Baru Seberida", "place": "village", "ref": "14.04.09.2005", "wikidata": "Q14635415"}}, {"type": "node", "id": 1308465384, "lat": -0.5054934, "lon": 102.9219026, "tags": {"admin_level": "7", "name": "Mumpa", "place": "village", "ref": "14.04.05.2003", "wikidata": "Q12499510"}}, {"type": "node", "id": 1308468116, "lat": -0.6418452, "lon": 102.5895866, "tags": {"admin_level": "7", "alt_name": "Panyaguan", "description": "Penyaguan, Batang Gansal, Indragiri Hulu", "name": "Penyaguan", "official_name": "Desa Penyaguan", "place": "village", "ref": "14.02.08.2010", "wikidata": "Q14653577"}}, {"type": "node", "id": 1308472001, "lat": -0.6050903, "lon": 102.8915507, "tags": {"admin_level": "7", "capital": "6", "name": "Harapan Tani", "place": "village", "ref": "14.04.19.1007", "wikidata": "Q12485267"}}, {"type": "node", "id": 1308472489, "lat": -0.6076303, "lon": 102.9390634, "tags": {"admin_level": "7", "name": "Karya Tani", "place": "village", "ref": "14.04.19.2008", "wikidata": "Q13544987"}}, {"type": "node", "id": 1308474966, "lat": -0.7223692, "lon": 102.8613814, "tags": {"admin_level": "7", "description": "Kuala Lemang, Keritang, Indragiri Hilir", "name": "Kuala Lemang", "official_name": "Desa Kuala Lemang", "place": "village", "ref": "14.04.09.2009", "wikidata": "Q12492726"}}, {"type": "node", "id": 9488757621, "lat": -0.7383172, "lon": 102.9367253, "tags": {"description": "Keritang, Indragiri Hilir, Riau", "name": "Keritang", "official_name": "Kecamatan Keritang", "place": "village", "ref": "14.04.09", "wikidata": "Q6542749"}}, {"type": "node", "id": 9489031795, "lat": -0.6457878, "lon": 102.9130729, "tags": {"admin_level": "7", "description": "Lintas Utara, Keritang, Indragiri Hilir", "name": "Lintas Utara", "official_name": "Desa Lintas Utara", "place": "village", "ref": "14.04.09.2016", "wikidata": "Q24038607"}}, {"type": "node", "id": 9489433936, "lat": -0.7115925, "lon": 102.6606834, "tags": {"admin_level": "7", "description": "Petalongan, Keritang, Indragiri Hilir", "name": "Petalongan", "official_name": "Desa Petalongan", "place": "village", "ref": "14.04.09.2014", "wikidata": "Q24038605"}}, {"type": "node", "id": 9489658837, "lat": -0.6899453, "lon": 102.7951871, "tags": {"admin_level": "7", "description": "Nyiur Permai, Keritang, Indragiri Hilir", "name": "Nyiur Permai", "official_name": "Desa Nyiur Permai", "place": "village", "ref": "14.04.09.2015", "wikidata": "Q24038606"}}, {"type": "node", "id": 12406081185, "lat": -0.5412442, "lon": 102.7656471, "tags": {"name": "Kulim Jaya", "place": "village"}}, {"type": "node", "id": 12406081186, "lat": -0.496107, "lon": 102.7688405, "tags": {"admin_level": "7", "name": "Pekan Tua", "place": "village", "ref": "14.04.19.2001", "wikidata": "Q12504119"}}]}